$GPGGA,175457.00,,,,,1,13,Inf,,M,0.0,M,0.0,0000*0F
$GPRMC,175457.00,A,,,,,,,131217,,,A*67
$GPGGA,175458.00,,,,,1,13,Inf,,M,0.0,M,0.0,0000*00
$GPRMC,175458.00,A,,,,,,,131217,,,A*68
$GPGGA,175459.00,,,,,1,13,Inf,,M,0.0,M,0.0,0000*01
$GPRMC,175459.00,A,,,,,,,131217,,,A*69
$GPGGA,175500.00,,,,,1,13,Inf,,M,0.0,M,0.0,0000*0C
$GPRMC,175500.00,A,,,,,,,131217,,,A*64
$GPGGA,175501.00,,,,,1,13,Inf,,M,0.0,M,0.0,0000*0D
$GPRMC,175501.00,A,,,,,,,131217,,,A*65
$GPGGA,175502.00,,,,,1,13,Inf,,M,0.0,M,0.0,0000*0E
$GPRMC,175502.00,A,,,,,,,131217,,,A*66
$GPGGA,175503.00,,,,,1,13,Inf,,M,0.0,M,0.0,0000*0F
$GPRMC,175503.00,A,,,,,,,131217,,,A*67
$GPGGA,175504.00,,,,,1,13,Inf,,M,0.0,M,0.0,0000*08
$GPRMC,175504.00,A,,,,,,,131217,,,A*60
$GPGGA,175505.00,,,,,1,13,Inf,,M,0.0,M,0.0,0000*09
$GPRMC,175505.00,A,,,,,,,131217,,,A*61
$GPGGA,175506.00,,,,,1,13,Inf,,M,0.0,M,0.0,0000*0A
$GPRMC,175506.00,A,,,,,,,131217,,,A*62
$GPGGA,175507.00,,,,,1,13,Inf,,M,0.0,M,0.0,0000*0B
$GPRMC,175507.00,A,,,,,,,131217,,,A*63
$GPGGA,175508.00,2207.264175,S,05124.535300,W,1,13,1.2,418,M,0.0,M,0.0,0000*67
$GNGSA,A,3,15,17,2.148,1.160,*09
$GPGSA,A,3,02,05,12,21,25,29,2.148,1.160,1.808,7*2A
$GPRMC,175508.00,A,2207.264175,S,05124.535300,W,000.4,,131217,,,A*74
$GPGGA,175509.00,2207.258810,S,05124.535371,W,1,13,1.2,439,M,0.0,M,0.0,0000*66
$GNGSA,A,3,15,17,2.148,1.160,*09
$GPGSA,A,3,02,05,12,21,25,29,2.148,1.160,1.808,7*2A
$GPRMC,175509.00,A,2207.258810,S,05124.535371,W,000.8,,131217,,,A*7A
$GPGGA,175510.00,2207.255646,S,05124.538637,W,1,13,1.2,425,M,0.0,M,0.0,0000*69
$GNGSA,A,3,15,17,2.148,1.160,*09
$GPGSA,A,3,02,05,12,21,25,29,2.148,1.160,1.808,7*2A
$GPRMC,175510.00,A,2207.255646,S,05124.538637,W,000.6,,131217,,,A*76
$GPGGA,175511.00,2207.269098,S,05124.530716,W,1,13,1.2,447,M,0.0,M,0.0,0000*6C
$GNGSA,A,3,15,17,2.148,1.160,*09
$GPGSA,A,3,02,05,12,21,25,29,2.148,1.160,1.808,7*2A
$GPRMC,175511.00,A,2207.269098,S,05124.530716,W,000.5,,131217,,,A*74
$GPGGA,175512.00,2207.263724,S,05124.530202,W,1,13,1.2,435,M,0.0,M,0.0,0000*60
$GNGSA,A,3,15,17,2.148,1.160,*09
$GPGSA,A,3,02,05,12,21,25,29,2.148,1.160,1.808,7*2A
$GPRMC,175512.00,A,2207.263724,S,05124.530202,W,000.2,,131217,,,A*7A
$GPGGA,175513.00,2207.268201,S,05124.532449,W,1,13,1.2,453,M,0.0,M,0.0,0000*63
$GNGSA,A,3,15,17,2.148,1.160,*09
$GPGSA,A,3,02,05,12,21,25,29,2.148,1.160,1.807,7*25
$GPRMC,175513.00,A,2207.268201,S,05124.532449,W,000.1,,131217,,,A*7A
$GPGGA,175514.00,2207.269824,S,05124.531482,W,1,13,1.2,445,M,0.0,M,0.0,0000*6B
$GNGSA,A,3,15,17,2.148,1.160,*09
$GPGSA,A,3,02,05,12,21,25,29,2.148,1.160,1.807,7*25
$GPRMC,175514.00,A,2207.269824,S,05124.531482,W,001.7,,131217,,,A*72
$GPGGA,175515.00,2207.260457,S,05124.541006,W,1,13,1.2,432,M,0.0,M,0.0,0000*64
$GNGSA,A,3,15,17,2.148,1.160,*09
$GPGSA,A,3,02,05,12,21,25,29,2.148,1.160,1.807,7*25
$GPRMC,175515.00,A,2207.260457,S,05124.541006,W,000.5,,131217,,,A*7E
$GPGGA,175516.00,2207.259601,S,05124.523597,W,1,13,1.2,428,M,0.0,M,0.0,0000*6E
$GNGSA,A,3,15,17,2.148,1.160,*09
$GPGSA,A,3,02,05,12,21,25,29,2.148,1.160,1.807,7*25
$GPRMC,175516.00,A,2207.259601,S,05124.523597,W,000.2,,131217,,,A*78
$GPGGA,175517.00,2207.266590,S,05124.536890,W,1,13,1.2,439,M,0.0,M,0.0,0000*66
$GNGSA,A,3,15,17,2.148,1.160,*09
$GPGSA,A,3,02,05,12,21,25,29,2.148,1.160,1.807,7*25
$GPRMC,175517.00,A,2207.266590,S,05124.536890,W,002.1,310.0,131217,,,A*5D
$GPGGA,175518.00,2207.252655,S,05124.533040,W,1,13,1.2,397,M,0.0,M,0.0,0000*67
$GNGSA,A,3,15,17,2.148,1.160,*09
$GPGSA,A,3,02,05,12,21,25,29,2.148,1.160,1.807,7*25
$GPRMC,175518.00,A,2207.252655,S,05124.533040,W,000.6,,131217,,,A*76
$GPGGA,175519.00,2207.271476,S,05124.532703,W,1,13,1.2,462,M,0.0,M,0.0,0000*68
$GNGSA,A,3,15,17,2.148,1.160,*09
$GPGSA,A,3,02,05,12,21,25,29,2.148,1.160,1.807,7*25
$GPRMC,175519.00,A,2207.271476,S,05124.532703,W,000.6,,131217,,,A*74
$GPGGA,175520.00,2207.271441,S,05124.533181,W,1,13,1.2,425,M,0.0,M,0.0,0000*68
$GNGSA,A,3,15,17,2.148,1.161,*08
$GPGSA,A,3,02,05,12,21,25,29,2.148,1.161,1.807,7*24
$GPRMC,175520.00,A,2207.271441,S,05124.533181,W,000.3,,131217,,,A*72
$GPGGA,175521.00,2207.278624,S,05124.528580,W,1,13,1.2,461,M,0.0,M,0.0,0000*6E
$GNGSA,A,3,15,17,2.148,1.161,*08
$GPGSA,A,3,02,05,12,21,25,29,2.148,1.161,1.807,7*24
$GPRMC,175521.00,A,2207.278624,S,05124.528580,W,000.4,,131217,,,A*73
$GPGGA,175522.00,2207.260032,S,05124.526402,W,1,13,1.2,412,M,0.0,M,0.0,0000*64
$GNGSA,A,3,15,17,2.148,1.161,*08
$GPGSA,A,3,02,05,12,21,25,29,2.148,1.161,1.807,7*24
$GPRMC,175522.00,A,2207.260032,S,05124.526402,W,002.3,039.0,131217,,,A*5C
$GPGGA,175523.00,2207.268959,S,05124.539162,W,1,13,1.2,460,M,0.0,M,0.0,0000*61
$GNGSA,A,3,15,17,2.148,1.161,*08
$GPGSA,A,3,02,05,12,21,25,29,2.148,1.161,1.807,7*24
$GPRMC,175523.00,A,2207.268959,S,05124.539162,W,000.8,,131217,,,A*71
$GPGGA,175524.00,2207.252850,S,05124.539755,W,1,13,1.2,379,M,0.0,M,0.0,0000*6A
$GNGSA,A,3,15,17,2.148,1.161,*08
$GPGSA,A,3,02,05,12,21,25,29,2.148,1.161,1.807,7*24
$GPRMC,175524.00,A,2207.252850,S,05124.539755,W,000.3,,131217,,,A*7E
$GPGGA,175525.00,2207.260481,S,05124.533256,W,1,13,1.2,461,M,0.0,M,0.0,0000*68
$GNGSA,A,3,15,17,2.148,1.161,*08
$GPGSA,A,3,02,05,12,21,25,29,2.148,1.161,1.807,7*24
$GPRMC,175525.00,A,2207.260481,S,05124.533256,W,002.2,121.7,131217,,,A*5A
$GPGGA,175526.00,2207.258563,S,05124.538771,W,1,13,1.2,442,M,0.0,M,0.0,0000*67
$GNGSA,A,3,15,17,2.148,1.161,*08
$GPGSA,A,3,02,05,12,21,25,29,2.148,1.161,1.807,7*24
$GPRMC,175526.00,A,2207.258563,S,05124.538771,W,001.4,,131217,,,A*7A
$GPGGA,175527.00,2207.251604,S,05124.537308,W,1,13,1.2,404,M,0.0,M,0.0,0000*6A
$GNGSA,A,3,15,17,2.148,1.161,*08
$GPGSA,A,3,02,05,12,21,25,29,2.148,1.161,1.807,7*24
$GPRMC,175527.00,A,2207.251604,S,05124.537308,W,001.4,,131217,,,A*75
$GPGGA,175528.00,2207.267550,S,05124.529639,W,1,13,1.2,471,M,0.0,M,0.0,0000*68
$GNGSA,A,3,15,17,2.148,1.161,*08
$GPGSA,A,3,02,05,12,21,25,29,2.148,1.161,1.807,7*24
$GPRMC,175528.00,A,2207.267550,S,05124.529639,W,000.7,,131217,,,A*77
$GPGGA,175529.00,2207.266710,S,05124.530228,W,1,13,1.2,419,M,0.0,M,0.0,0000*6C
$GNGSA,A,3,15,17,2.148,1.161,*08
$GPGSA,A,3,02,05,12,21,25,29,2.148,1.161,1.807,7*24
$GPRMC,175529.00,A,2207.266710,S,05124.530228,W,000.7,,131217,,,A*7D
$GPGGA,175530.00,2207.280535,S,05124.523993,W,1,13,1.2,467,M,0.0,M,0.0,0000*69
$GNGSA,A,3,15,17,2.147,1.161,*07
$GPGSA,A,3,02,05,12,21,25,29,2.147,1.161,1.807,7*2B
$GPRMC,175530.00,A,2207.280535,S,05124.523993,W,001.2,,131217,,,A*75
$GPGGA,175531.00,2207.284616,S,05124.521227,W,1,13,1.2,435,M,0.0,M,0.0,0000*6F
$GNGSA,A,3,15,17,2.147,1.161,*07
$GPGSA,A,3,02,05,12,21,25,29,2.147,1.161,1.807,7*2B
$GPRMC,175531.00,A,2207.284616,S,05124.521227,W,001.0,,131217,,,A*76
$GPGGA,175532.00,2207.276147,S,05124.527878,W,1,13,1.2,410,M,0.0,M,0.0,0000*63
$GNGSA,A,3,15,17,2.147,1.161,*07
$GPGSA,A,3,02,05,12,21,25,29,2.147,1.161,1.806,7*2A
$GPRMC,175532.00,A,2207.276147,S,05124.527878,W,001.1,,131217,,,A*7C
$GPGGA,175533.00,2207.266788,S,05124.530253,W,1,13,1.3,451,M,0.0,M,0.0,0000*67
$GNGSA,A,3,17,2.213,1.277,*29
$GPGSA,A,3,02,05,12,21,25,29,2.213,1.277,1.807,7*2D
$GPRMC,175533.00,A,2207.266788,S,05124.530253,W,001.0,,131217,,,A*7D
$GPGGA,175534.00,2207.280315,S,05124.541022,W,1,13,1.2,465,M,0.0,M,0.0,0000*6C
$GNGSA,A,3,15,17,2.147,1.161,*07
$GPGSA,A,3,02,05,12,21,25,29,2.147,1.161,1.806,7*2A
$GPRMC,175534.00,A,2207.280315,S,05124.541022,W,000.7,,131217,,,A*76
$GPGGA,175535.00,2207.276410,S,05124.528715,W,1,13,1.3,435,M,0.0,M,0.0,0000*6E
$GNGSA,A,3,17,2.213,1.277,*29
$GPGSA,A,3,02,05,12,21,25,29,2.213,1.277,1.807,7*2D
$GPRMC,175535.00,A,2207.276410,S,05124.528715,W,001.7,,131217,,,A*71
$GPGGA,175536.00,2207.269674,S,05124.527261,W,1,13,1.3,445,M,0.0,M,0.0,0000*6D
$GNGSA,A,3,17,2.213,1.277,*29
$GPGSA,A,3,02,05,12,21,25,29,2.213,1.277,1.807,7*2D
$GPRMC,175536.00,A,2207.269674,S,05124.527261,W,000.9,,131217,,,A*7A
$GPGGA,175537.00,,,,,1,13,Inf,,M,0.0,M,0.0,0000*08
$GPRMC,175537.00,A,,,,,,,131217,,,A*60
$GPGGA,175538.00,,,,,1,13,Inf,,M,0.0,M,0.0,0000*07
$GPRMC,175538.00,A,,,,,,,131217,,,A*6F
$GPGGA,175539.00,,,,,1,13,Inf,,M,0.0,M,0.0,0000*06
$GPRMC,175539.00,A,,,,,,,131217,,,A*6E
$GPGGA,175540.00,,,,,1,13,Inf,,M,0.0,M,0.0,0000*08
$GPRMC,175540.00,A,,,,,,,131217,,,A*60
$GPGGA,175541.00,,,,,1,13,Inf,,M,0.0,M,0.0,0000*09
$GPRMC,175541.00,A,,,,,,,131217,,,A*61
$GPGGA,175542.00,,,,,1,13,Inf,,M,0.0,M,0.0,0000*0A
$GPRMC,175542.00,A,,,,,,,131217,,,A*62
$GPGGA,175543.00,,,,,1,13,Inf,,M,0.0,M,0.0,0000*0B
$GPRMC,175543.00,A,,,,,,,131217,,,A*63
$GPGGA,175544.00,,,,,1,13,Inf,,M,0.0,M,0.0,0000*0C
$GPRMC,175544.00,A,,,,,,,131217,,,A*64
$GPGGA,175545.00,,,,,1,13,Inf,,M,0.0,M,0.0,0000*0D
$GPRMC,175545.00,A,,,,,,,131217,,,A*65
$GPGGA,175546.00,,,,,1,13,Inf,,M,0.0,M,0.0,0000*0E
$GPRMC,175546.00,A,,,,,,,131217,,,A*66
$GPGGA,175547.00,,,,,1,13,Inf,,M,0.0,M,0.0,0000*0F
$GPRMC,175547.00,A,,,,,,,131217,,,A*67
$GPGGA,175548.00,,,,,1,13,Inf,,M,0.0,M,0.0,0000*00
$GPRMC,175548.00,A,,,,,,,131217,,,A*68
$GPGGA,175549.00,,,,,1,13,Inf,,M,0.0,M,0.0,0000*01
$GPRMC,175549.00,A,,,,,,,131217,,,A*69
$GPGGA,175550.00,,,,,1,13,Inf,,M,0.0,M,0.0,0000*09
$GPRMC,175550.00,A,,,,,,,131217,,,A*61
$GPGGA,175551.00,,,,,1,13,Inf,,M,0.0,M,0.0,0000*08
$GPRMC,175551.00,A,,,,,,,131217,,,A*60
$GPGGA,175552.00,,,,,1,13,Inf,,M,0.0,M,0.0,0000*0B
$GPRMC,175552.00,A,,,,,,,131217,,,A*63
$GPGGA,175553.00,,,,,1,13,Inf,,M,0.0,M,0.0,0000*0A
$GPRMC,175553.00,A,,,,,,,131217,,,A*62
